Time [ms],Current [adc],Roll [deg],Pitch [deg],Yaw [deg],Throttle [us],Aileron,Elevator,Rudder,Clutch,Body Hook,Tail Hook
3877,1908,-174,-84,-71,3887,117,7,83,-1,-84,-1
65464,3897,1931,-173,-84,-72,67,15,-125,7,83,-1
65452,-72,3917,1915,-172,-84,-72,-1,87,15,122,7
65364,-84,-73,3937,1910,-173,-84,-1,-72,-1,107,15
1912,-172,-84,-73,3957,1914,84,-1,-84,-1,-73,-1
3967,1915,-173,-84,-72,3977,123,7,82,-1,-84,-1
65465,3987,1912,-175,-84,-70,-99,15,117,7,80,-1
65452,-69,4007,1915,-176,-84,-69,-1,-79,15,118,7
65361,-84,-69,4027,1910,-176,-84,-1,-69,-1,-59,15
1910,-177,-84,-68,4047,1910,81,-1,-84,-1,-70,-1
4057,1921,-175,-85,-70,4067,123,7,80,-1,-84,-1
65467,0,1914,-174,-84,-71,10,0,127,7,83,-1
65451,-72,20,1931,-174,-84,-72,-1,30,0,118,7
65364,-84,-73,40,1910,-170,-84,-1,-75,-1,50,0
1908,-169,-84,-77,60,1911,90,-1,-84,-1,-79,-1
70,1910,-165,-84,-80,80,119,7,91,-1,-84,-1
65455,90,1919,-164,-84,-81,100,0,-124,7,93,-1
65452,-82,110,1916,-164,-84,-82,-1,120,0,-110,7
65373,-84,-83,130,1922,-161,-84,-1,-85,-1,-116,0
1937,-160,-84,-86,150,1950,99,-1,-84,-1,-89,-1
160,1966,-155,-84,-91,170,-88,7,102,-1,-84,-1
65445,180,1951,-152,-83,-93,-66,0,-9,7,105,-1
65453,-94,200,2036,-151,-83,-94,-1,-46,0,-51,7
65385,-83,-94,220,1988,-151,-83,-1,-94,-1,-26,0
1971,-150,-83,-94,240,1992,106,-1,-83,-1,-94,-1
250,1967,-149,-82,-94,260,-77,7,107,-1,-82,-1
65442,270,1970,-149,-82,-95,24,1,-81,7,107,-1
65454,-94,290,1989,-148,-82,-95,-1,44,1,-14,7
65387,-82,-94,310,2107,-149,-82,-1,-93,-1,64,1
2257,-149,-81,-93,330,2280,107,-1,-81,-1,-93,-1
340,2426,-149,-81,-93,350,-107,9,107,-1,-81,-1
65444,360,2413,-149,-81,-92,114,1,92,10,106,-1
65455,-91,380,2942,-149,-81,-91,-1,-122,1,27,10
65388,-81,-91,400,2799,-148,-81,-1,-91,-1,-102,1
3106,-148,-81,-90,420,3278,108,-1,-81,-1,-90,-1
430,3032,-147,-81,-91,440,-121,12,110,-1,-81,-1
65445,450,3491,-147,-81,-90,-52,1,-32,13,108,-1
65455,-89,470,3481,-147,-81,-89,-1,-32,1,30,14
65389,-81,-89,490,3666,-147,-81,-1,-90,-1,-12,1
3684,-146,-81,-90,510,3741,109,-1,-81,-1,-90,-1
520,3712,-146,-81,-91,530,-88,14,110,-1,-81,-1
65445,540,3768,-147,-81,-90,38,2,-112,14,107,-1
65455,-89,560,3751,-150,-81,-88,-1,58,2,-82,14
65387,-81,-90,580,3694,-149,-81,-1,-91,-1,78,2
3738,-150,-80,-90,600,3721,106,-1,-80,-1,-90,-1
610,3672,-151,-80,-90,620,70,14,106,-1,-80,-1
65444,630,3718,-146,-80,-95,-128,2,101,14,111,-1
65457,-97,650,3736,-143,-80,-99,-1,-108,2,-66,14
65395,-80,-102,670,3761,-141,-80,-1,-102,-1,-88,2
3718,-141,-80,-102,690,3666,116,-1,-80,-1,-104,-1
700,3731,-138,-80,-106,710,-64,14,119,-1,-80,-1
65428,720,3725,-137,-80,-109,-38,2,90,14,116,-1
65457,-107,740,3763,-142,-79,-105,-1,-18,2,114,14
65395,-79,-106,760,3743,-139,-79,-1,-108,-1,2,3
3683,-139,-79,-108,780,3697,115,-1,-79,-1,-106,-1
790,3696,-142,-79,-106,800,109,14,115,-1,-79,-1
65429,810,3751,-141,-79,-108,52,3,104,14,115,-1
65456,-108,830,3685,-141,-80,-109,-1,72,3,80,14
65395,-80,-108,850,3668,-141,-80,-1,-109,-1,92,3
3722,-140,-81,-109,870,3730,113,-1,-81,-1,-107,-1
880,3764,-145,-81,-106,890,-123,14,109,-1,-81,-1
65433,900,3676,-147,-81,-103,-114,3,66,14,109,-1
65456,-104,920,3667,-146,-81,-104,-1,-94,3,-68,14
65390,-81,-105,940,3746,-145,-81,-1,-105,-1,-74,3
3734,-145,-81,-105,960,3677,107,-1,-81,-1,-102,-1
970,3709,-151,-81,-100,980,58,14,105,-1,-81,-1
65436,990,3729,-150,-81,-100,-24,3,103,14,107,-1
65455,-101,1010,3698,-150,-82,-100,-1,-4,3,-85,14
65384,-81,-98,1030,3652,-152,-81,-1,-99,-1,16,4
3647,-153,-81,-98,1050,3631,103,-1,-81,-1,-99,-1
1060,3640,-153,-81,-99,1070,63,14,102,-1,-81,-1
65438,1080,3732,-153,-81,-99,66,4,99,14,104,-1
65455,-100,1100,3688,-149,-81,-102,-1,86,4,107,14
65389,-81,-103,1120,3624,-148,-81,-1,-102,-1,106,4
3734,-148,-82,-102,1140,3692,108,-1,-82,-1,-101,-1
1150,3685,-148,-82,-101,1160,38,14,105,-1,-82,-1
65439,1170,3640,-152,-82,-95,-100,4,88,14,102,-1
65454,-93,1190,3699,-155,-82,-92,-1,-80,4,-106,14
65380,-81,-91,1210,3661,-157,-82,-1,-90,-1,-60,4
3682,-160,-82,-88,1230,3735,95,-1,-82,-1,-88,-1
1240,3677,-162,-82,-86,1250,-87,14,92,-1,-82,-1
65451,1260,3748,-165,-83,-85,-10,4,-66,14,90,-1
65453,-84,1280,3715,-165,-83,-85,-1,10,5,93,14
65372,-83,-86,1300,3782,-164,-83,-1,-86,-1,30,5
3587,-163,-83,-87,1320,3647,91,-1,-83,-1,-85,-1
1330,3737,-166,-83,-85,1340,107,14,91,-1,-84,-1
65450,1350,3760,-164,-83,-86,80,5,94,14,92,-1
65452,-86,1370,3729,-163,-84,-87,-1,100,5,120,14
65373,-84,-87,1390,3700,-163,-84,-1,-86,-1,120,5
3700,-161,-84,-88,1410,3721,95,-1,-84,-1,-87,-1
1420,3656,-160,-84,-88,1430,-128,14,98,-1,-84,-1
65446,1440,3742,-157,-84,-90,-86,5,-118,14,101,-1
65452,-92,1460,3733,-156,-84,-91,-1,-66,5,-94,14
65381,-84,-92,1480,3754,-156,-84,-1,-90,-1,-46,5
3708,-155,-84,-92,1500,3676,102,-1,-84,-1,-92,-1
1510,3760,-154,-84,-92,1520,87,14,103,-1,-84,-1
65443,1530,3760,-158,-84,-88,4,6,-113,14,93,-1
65453,-83,1550,3754,-167,-83,-80,-1,24,6,-123,14
65367,-83,-78,1570,3651,-170,-83,-1,-78,-1,44,6
3760,-172,-83,-76,1590,3699,85,-1,-83,-1,-79,-1
1600,3712,-170,-83,-79,1610,107,14,85,-1,-83,-1
65457,1620,3688,-167,-84,-81,94,6,24,14,90,-1
65453,-82,1640,3731,-167,-83,-81,-1,114,6,48,14
65365,-83,-78,1660,3677,-171,-83,-1,-78,-1,-122,6
3765,-170,-82,-80,1680,3677,85,-1,-82,-1,-79,-1
1690,3670,-171,-82,-79,1700,97,14,84,-1,-83,-1
65459,1710,3772,-174,-82,-75,-72,6,91,14,83,-1
65454,-76,1730,3655,-173,-82,-76,-1,-52,6,-109,14
65363,-82,-76,1750,3606,-174,-82,-1,-75,-1,-32,6
3726,-174,-82,-75,1770,3604,81,-1,-82,-1,-74,-1
1780,3666,-177,-82,-72,1790,53,14,78,-1,-82,-1
65465,1800,3706,-177,-82,-72,18,7,-99,14,80,-1
65454,-73,1820,3679,-177,-83,-72,-1,38,7,107,14
65357,-82,-70,1840,3759,180,-82,-1,-69,-1,58,7
3663,177,-82,-67,1860,3721,-79,0,-82,-1,-66,-1
1870,3628,175,-82,-66,1880,67,14,-80,0,-82,-1
65469,1890,3710,176,-82,-67,108,7,93,14,-78,0
65454,-69,1910,3759,-180,-82,-70,-1,-128,7,-104,14
178,-82,-68,1930,3603,179,-82,-1,-69,-1,-108,7
3649,178,-82,-68,1950,3632,-78,0,-82,-1,-68,-1
1960,3699,178,-82,-68,1970,-72,14,-78,0,-82,-1
65467,1980,3700,178,-82,-68,-58,7,-107,14,-79,0
65454,-67,2000,3736,178,-82,-68,-1,-38,7,111,14
177,-82,-67,2020,3591,178,-82,-1,-68,-1,-18,7
3529,179,-82,-69,2040,3713,-76,0,-82,-1,-70,-1
2050,3670,180,-82,-70,2060,108,14,-76,0,-82,-1
65466,2070,3763,179,-82,-69,32,8,91,14,77,-1
65454,-71,2090,3714,-176,-82,-73,-1,52,8,-126,14
65362,-82,-75,2110,3627,-172,-82,-1,-77,-1,72,8
3723,-172,-82,-77,2130,3563,85,-1,-82,-1,-77,-1
2140,3699,-170,-82,-78,2150,101,14,86,-1,-83,-1
65459,2160,3762,-170,-83,-77,122,8,45,14,85,-1
65454,-75,2180,3693,-172,-82,-75,-1,-114,8,-109,14
65365,-82,-76,2200,3765,-171,-82,-1,-76,-1,-94,8
3717,-173,-83,-74,2220,3670,85,-1,-82,-1,-76,-1
2230,3683,-170,-83,-76,2240,-121,14,86,-1,-83,-1
65460,2250,3657,-168,-83,-78,-44,8,68,14,88,-1
65453,-79,2270,3745,-168,-83,-80,-1,-24,8,112,14
65368,-84,-79,2290,3611,-168,-84,-1,-80,-1,-4,8
3599,-167,-84,-80,2310,3714,90,-1,-84,-1,-81,-1
2320,3676,-166,-84,-81,2330,116,14,91,-1,-84,-1
65455,2340,3702,-166,-84,-80,46,9,-119,14,89,-1
65452,-79,2360,3735,-166,-84,-80,-1,66,9,65,14
65370,-84,-80,2380,3691,-165,-83,-1,-81,-1,86,9
3690,-165,-83,-80,2400,3610,92,-1,-83,-1,-81,-1
2410,3683,-164,-83,-82,2420,-112,14,94,-1,-83,-1
65453,2430,3758,-162,-83,-83,-120,9,35,14,95,-1
65454,-83,2450,3620,-162,-82,-82,-1,-100,9,121,14
65375,-82,-83,2470,3764,-161,-82,-1,-83,-1,-80,9
3721,-161,-82,-82,2490,3598,96,-1,-82,-1,-83,-1
2500,3631,-160,-82,-83,2510,-85,14,96,-1,-82,-1
65453,2520,3730,-160,-82,-83,-30,9,-97,14,94,-1
65454,-81,2540,3747,-166,-82,-77,-1,-10,9,-123,14
65369,-82,-77,2560,3662,-169,-82,-1,-75,-1,10,10
3759,-169,-82,-75,2580,3621,85,-1,-82,-1,-74,-1
2590,3718,-173,-82,-73,2600,9,14,83,-1,-81,-1
65463,2610,3768,-174,-82,-72,60,10,124,14,84,-1
65454,-74,2630,3658,-172,-83,-75,-1,80,10,111,14
65366,-83,-77,2650,3716,-166,-84,-1,-80,-1,100,10
3691,-168,-83,-77,2670,3589,85,-1,-83,-1,-75,-1
2680,3623,-173,-82,-73,2690,-119,14,80,-1,-81,-1
65465,2700,3721,-177,-81,-69,-106,10,112,14,78,-1
65454,-69,2720,3665,-178,-82,-68,-1,-86,10,76,14
65357,-82,-67,2740,3741,-179,-83,-1,-67,-1,-66,10
3705,180,-82,-67,2760,3654,-77,0,-82,-1,-66,-1
2770,3627,180,-82,-67,2780,39,14,-76,0,-82,-1
65469,2790,3724,180,-82,-67,-16,10,41,14,-77,0
65454,-66,2810,3746,-180,-82,-67,-1,4,11,127,14
180,-81,-67,2830,3692,178,-81,-1,-65,-1,24,11
3706,178,-81,-66,2850,3724,-78,0,-81,-1,-65,-1
2860,3596,177,-81,-65,2870,82,14,-79,0,-81,-1
65471,2880,3613,178,-81,-66,74,11,-1,13,-77,0
65455,-67,2900,3650,178,-81,-65,-1,94,11,85,14
179,-81,-66,2920,3671,179,-81,-1,-66,-1,114,11
3715,179,-81,-66,2940,3755,-79,0,-81,-1,-65,-1
2950,3700,178,-81,-65,2960,31,14,-78,0,-81,-1
65471,2970,3626,178,-81,-65,-92,11,-117,14,-78,0
65455,-65,2990,3613,178,-81,-65,-1,-72,11,72,14
178,-81,-65,3010,3697,178,-81,-1,-65,-1,-52,11
3653,178,-81,-66,3030,3684,-79,0,-81,-1,-65,-1
3040,3752,177,-81,-65,3050,-87,14,-79,0,-80,-1
65471,3060,3659,178,-81,-66,-2,11,-105,14,-79,0
65455,-64,3080,3563,179,-81,-66,-1,18,12,-109,14
65357,-81,-68,3100,3776,-177,-81,-1,-69,-1,38,12
3704,-177,-81,-70,3120,3612,80,-1,-81,-1,-70,-1
3130,3639,-176,-81,-70,3140,-111,14,81,-1,-81,-1
65465,3150,3677,-175,-81,-70,88,12,86,14,82,-1
65455,-71,3170,3746,-174,-81,-71,-1,108,12,53,14
65362,-80,-71,3190,3643,-174,-81,-1,-71,-1,-128,12
3734,-173,-81,-71,3210,3646,82,-1,-81,-1,-70,-1
3220,3596,-172,-81,-72,3230,85,14,84,-1,-82,-1
65464,3240,3688,-172,-81,-72,-78,12,-127,14,83,-1
65454,-72,3260,3723,-172,-82,-73,-1,-58,12,103,14
65363,-82,-73,3280,3660,-172,-82,-1,-74,-1,-38,12
3652,-170,-83,-76,3300,3598,87,-1,-83,-1,-76,-1
3310,3723,-167,-83,-78,3320,95,14,91,-1,-83,-1
65457,3330,3699,-166,-83,-79,12,13,89,14,90,-1
65453,-78,3350,3683,-166,-83,-78,-1,32,13,123,14
65371,-83,-78,3370,3682,-166,-83,-1,-78,-1,52,13
3706,-166,-83,-77,3390,3714,90,-1,-82,-1,-77,-1
3400,3732,-166,-82,-78,3410,-76,14,91,-1,-82,-1
65458,3420,3639,-165,-82,-78,102,13,33,14,91,-1
65455,-78,3440,3668,-166,-81,-77,-1,122,13,-67,14
65371,-81,-77,3460,3627,-166,-81,-1,-77,-1,-114,13
3640,-165,-81,-77,3480,3642,91,-1,-81,-1,-77,-1
3490,3725,-164,-80,-77,3500,-113,14,92,-1,-81,-1
65459,3510,3699,-164,-80,-77,-64,13,116,14,91,-1
65456,-76,3530,3600,-167,-80,-74,-1,-44,13,20,14
65367,-80,-72,3550,3705,-171,-79,-1,-70,-1,-24,13
3640,-172,-79,-70,3570,3751,83,-1,-79,-1,-70,-1
3580,3679,-174,-80,-69,3590,79,14,81,-1,-79,-1
65467,3600,3710,-176,-80,-68,26,14,-117,14,80,-1
65457,-68,3620,3657,-176,-80,-68,-1,46,14,105,14
65360,-80,-68,3640,3756,-176,-80,-1,-68,-1,66,14
3687,-175,-80,-69,3660,3691,85,-1,-81,-1,-72,-1
3670,3757,-175,-80,-68,3680,80,14,80,-1,-80,-1
65469,3690,3617,-177,-79,-66,116,14,122,14,77,-1
65457,-65,3710,3669,-179,-79,-65,-1,-120,14,86,14
65356,-80,-64,3730,3606,-180,-80,-1,-64,-1,-100,14
3693,180,-80,-63,3750,3586,-77,0,-79,-1,-63,-1
3760,3710,178,-80,-62,3770,-114,14,-77,0,-80,-1
65473,3780,3631,179,-80,-63,-50,14,71,14,-78,0
65456,-62,3800,3691,178,-80,-62,-1,-30,14,122,14
178,-80,-63,3820,3701,178,-80,-1,-62,-1,-10,14
3749,178,-80,-63,3840,3637,-79,0,-80,-1,-62,-1
3850,3634,177,-80,-62,3860,95,14,-80,0,-80,-1
65475,3870,3683,175,-80,-60,40,15,26,14,-82,0
65456,-59,3890,3754,175,-80,-60,-1,60,15,-126,14
175,-80,-60,3910,3656,175,-80,-1,-60,-1,80,15
3766,174,-80,-59,3930,3666,-81,0,-80,-1,-59,-1
3940,3701,174,-80,-58,3950,85,14,-82,0,-80,-1
65478,3960,3579,173,-80,-57,-126,15,77,14,-82,0
65456,-58,3980,3641,173,-80,-57,-1,-106,15,81,14
173,-80,-57,4000,3687,172,-80,-1,-56,-1,-86,15
3627,172,-80,-57,4020,3648,-85,0,-80,-1,-55,-1
4030,3609,172,-80,-57,4040,91,14,-84,0,-80,-1
65479,4050,3677,173,-80,-58,-36,15,67,14,-83,0
65456,-58,4070,3615,173,-80,-57,-1,-16,15,13,14
173,-80,-58,4090,3721,176,-80,-1,-60,-1,4,16
3645,176,-80,-60,4110,3671,-78,0,-80,-1,-61,-1
4120,3661,178,-80,-61,4130,45,14,-77,0,-80,-1
65474,4140,3715,179,-80,-61,54,16,8,14,-77,0
65456,-61,4160,3694,178,-80,-60,-1,74,16,114,14
178,-80,-60,4180,3684,177,-80,-1,-59,-1,94,16
3635,178,-80,-60,4200,3701,-78,0,-81,-1,-60,-1
4210,3626,178,-81,-60,4220,-8,13,-77,0,-81,-1
65475,4230,3701,179,-81,-62,-112,16,-16,13,-77,0
65455,-62,4250,3663,-179,-81,-63,-1,-92,16,64,14
65357,-81,-64,4270,3663,-178,-81,-1,-65,-1,-72,16
3612,-177,-82,-66,4290,3627,81,-1,-82,-1,-67,-1
4300,3593,-174,-82,-68,4310,119,14,83,-1,-82,-1
65467,4320,3670,-172,-82,-70,-22,16,76,14,84,-1
65454,-70,4340,3715,-171,-82,-70,-1,-2,16,100,14
65366,-82,-70,4360,3630,-170,-81,-1,-71,-1,18,17
3647,-170,-81,-71,4380,3719,86,-1,-81,-1,-71,-1
4390,3655,-169,-81,-71,4400,-121,14,87,-1,-80,-1
65464,4410,3687,-169,-80,-71,68,17,88,14,88,-1
65456,-72,4430,3647,-169,-80,-71,-1,88,17,52,14
65367,-79,-71,4450,3677,-169,-80,-1,-71,-1,108,17
3548,-168,-79,-71,4470,3602,89,-1,-79,-1,-71,-1
4480,3725,-168,-79,-71,4490,47,14,89,-1,-80,-1
65465,4500,3618,-168,-79,-70,-98,17,-92,14,89,-1
65457,-71,4520,3699,-167,-79,-71,-1,-78,17,40,14
65367,-79,-69,4540,3594,-171,-79,-1,-67,-1,-58,17
3684,-172,-79,-67,4560,3678,83,-1,-79,-1,-66,-1
4570,3624,-173,-79,-66,4580,106,14,81,-1,-79,-1
65470,4590,3648,-175,-79,-66,-8,17,80,14,79,-1
65457,-65,4610,3664,-177,-79,-64,-1,12,18,31,14
65359,-80,-65,4630,3678,-176,-79,-1,-66,-1,32,18
3622,-176,-80,-66,4650,3706,80,-1,-80,-1,-67,-1
4660,3744,-175,-80,-68,4670,87,14,83,-1,-80,-1
65467,4680,3646,-177,-80,-66,82,18,41,14,77,-1
65456,-64,4700,3717,180,-79,-63,-1,102,18,29,14
65356,-79,-64,4720,3692,-180,-80,-1,-64,-1,122,18
3727,180,-80,-63,4740,3703,-76,0,-80,-1,-63,-1
4750,3657,179,-80,-62,4760,85,14,-78,0,-80,-1
65475,4770,3743,178,-80,-61,-84,18,125,14,-78,0
65456,-61,4790,3680,179,-80,-62,-1,-64,18,38,14
178,-80,-61,4810,3580,178,-80,-1,-61,-1,-44,18
3677,178,-80,-61,4830,3667,-79,0,-80,-1,-60,-1
4840,3722,176,-80,-59,4850,59,14,-81,0,-80,-1
65478,4860,3697,175,-80,-59,6,19,-46,13,-81,0
65457,-59,4880,3597,175,-79,-59,-1,26,19,-104,14
175,-80,-59,4900,3752,177,-80,-1,-61,-1,46,19
3701,176,-80,-59,4920,3673,-81,0,-80,-1,-59,-1
4930,3773,175,-80,-58,4940,-17,13,-81,0,-80,-1
65478,4950,3580,174,-80,-57,96,19,64,14,-82,0
65456,-57,4970,3636,175,-80,-58,-1,116,19,117,14
175,-80,-58,4990,3630,174,-80,-1,-57,-1,-120,19
3666,173,-80,-56,5010,3741,-82,0,-81,-1,-56,-1
5020,3728,174,-81,-56,5030,18,14,-83,0,-81,-1
65480,5040,3658,172,-81,-55,-70,19,70,14,-82,0
65455,-57,5060,3640,173,-81,-57,-1,-50,19,63,14
173,-81,-56,5080,3595,175,-81,-1,-58,-1,-30,19
3741,176,-81,-59,5100,3730,-78,0,-81,-1,-60,-1
5110,3553,179,-81,-61,5120,-110,13,77,-1,-81,-1
65474,5130,3539,-179,-81,-63,20,20,-123,14,79,-1
65455,-64,5150,3593,-177,-81,-64,-1,40,20,-5,13
65359,-81,-64,5170,3733,-177,-81,-1,-63,-1,60,20
3773,-177,-81,-64,5190,3717,79,-1,-81,-1,-64,-1
5200,3723,-176,-82,-64,5210,-11,13,80,-1,-82,-1
65472,5220,3594,-174,-82,-66,110,20,-17,13,82,-1
65454,-66,5240,3592,-174,-82,-66,-1,-126,20,35,14
65361,-82,-66,5260,3583,-175,-82,-1,-66,-1,-106,20
3630,-174,-83,-68,5280,3771,83,-1,-83,-1,-69,-1
5290,3742,-172,-83,-70,5300,-107,14,85,-1,-83,-1
65464,5310,3732,-167,-84,-75,-56,20,-109,14,90,-1
65451,-76,5330,3634,-163,-85,-78,-1,-36,20,71,14
65372,-85,-78,5350,3514,-162,-85,-1,-79,-1,-16,20
3580,-163,-84,-78,5370,3620,94,-1,-84,-1,-79,-1
5380,3722,-162,-84,-79,5390,-81,14,95,-1,-84,-1
65457,5400,3640,-161,-84,-80,34,21,-36,13,95,-1
65452,-79,5420,3444,-160,-84,-80,-1,54,21,-110,14
65376,-83,-80,5440,3723,-159,-83,-1,-81,-1,74,21
3674,-159,-83,-80,5460,3656,97,-1,-83,-1,-80,-1
5470,3764,-160,-82,-79,5480,4,14,95,-1,-82,-1
65458,5490,3720,-160,-82,-79,124,21,-78,14,95,-1
65454,-77,5510,3675,-161,-82,-78,-1,-112,21,46,14
65374,-81,-76,5530,3714,-164,-81,-1,-74,-1,-92,21
3632,-168,-81,-71,5550,3589,86,-1,-81,-1,-69,-1
5560,3679,-172,-80,-67,5570,-118,14,83,-1,-80,-1
65469,5580,3614,-173,-80,-67,-42,21,-31,13,81,-1
65455,-66,5600,3738,-176,-81,-65,-1,-22,21,-35,13
65359,-81,-64,5620,3704,-175,-81,-1,-66,-1,-2,21
3731,-175,-81,-66,5640,3633,81,-1,-81,-1,-66,-1
5650,3600,-174,-81,-67,5660,-100,14,81,-1,-81,-1
65469,5670,3682,-175,-81,-67,48,22,84,14,85,-1
65454,-69,5690,3549,-175,-82,-65,-1,68,22,-65,14
65357,-81,-62,5710,3569,179,-81,-1,-60,-1,88,22
3757,179,-81,-61,5730,3593,77,-1,-81,-1,-62,-1
5740,3729,179,-81,-60,5750,69,14,-79,0,-81,-1
65477,5760,3707,177,-81,-59,-118,22,72,14,-79,0
65455,-58,5780,3705,176,-81,-57,-1,-98,22,-61,14
177,-81,-58,5800,3622,176,-81,-1,-58,-1,-78,22
3586,175,-81,-56,5820,3741,-81,0,-81,-1,-56,-1
5830,3553,175,-81,-56,5840,-58,14,-83,0,-81,-1
65481,5850,3489,173,-81,-54,-28,22,-80,14,-84,0
65455,-54,5870,3605,172,-81,-54,-1,-8,22,-128,13
171,-81,-53,5890,3763,172,-81,-1,-54,-1,12,23
3695,174,-82,-56,5910,3536,-83,0,-82,-1,-55,-1
5920,3781,172,-82,-54,5930,100,14,-85,0,-82,-1
65483,5940,3634,170,-82,-52,62,23,-89,14,-86,0
65454,-52,5960,3712,168,-82,-50,-1,82,23,117,13
168,-82,-51,5980,3767,168,-82,-1,-50,-1,102,23
3489,169,-82,-51,6000,3531,-88,0,-82,-1,-50,-1
6010,3680,169,-82,-51,6020,115,13,-87,0,-82,-1
65485,6030,3726,170,-81,-52,-104,23,109,14,-86,0
65455,-52,6050,3587,170,-81,-53,-1,-84,23,-109,14
170,-81,-53,6070,3544,168,-81,-1,-51,-1,-64,23
3695,170,-81,-52,6090,3678,-84,0,-81,-1,-54,-1
6100,3505,174,-81,-55,6110,-66,14,-82,0,-81,-1
65480,6120,3654,175,-81,-56,-14,23,-121,13,-80,0
65455,-57,6140,3757,176,-81,-56,-1,6,24,-119,14
176,-81,-56,6160,3472,177,-81,-1,-56,-1,26,24
3724,177,-81,-56,6180,3640,-79,0,-81,-1,-56,-1
6190,3687,177,-81,-56,6200,25,14,-79,0,-82,-1
65480,6210,3668,177,-82,-56,76,24,-67,14,-78,0
65453,-57,6230,3609,178,-83,-56,-1,96,24,-61,13
176,-83,-55,6250,3756,176,-84,-1,-55,-1,116,24
3653,177,-83,-56,6270,3715,-78,0,-84,-1,-57,-1
6280,3730,179,-84,-59,6290,45,14,-76,0,-84,-1
65476,6300,3437,-179,-84,-61,-90,24,80,14,78,-1
65451,-61,6320,3760,-176,-85,-64,-1,-70,24,-127,14
65361,-85,-64,6340,3697,-176,-85,-1,-63,-1,-50,24
3655,-176,-85,-63,6360,3712,81,-1,-85,-1,-64,-1
6370,3729,-173,-85,-66,6380,-57,14,85,-1,-85,-1
65469,6390,3757,-169,-85,-69,0,25,-125,14,86,-1
65451,-68,6410,3677,-168,-84,-70,-1,20,25,99,14
65371,-84,-72,6430,3642,-165,-84,-1,-72,-1,40,25
3727,-164,-83,-73,6450,3593,92,-1,-83,-1,-72,-1
6460,3496,-164,-83,-73,6470,-64,14,92,-1,-83,-1
65464,6480,3716,-164,-82,-72,90,25,28,14,92,-1
65453,-72,6500,3495,-166,-82,-70,-1,110,25,-72,14
65370,-82,-69,6520,3778,-166,-82,-1,-70,-1,-126,25
3742,-168,-82,-68,6540,3670,85,-1,-82,-1,-65,-1
6550,3767,-172,-81,-64,6560,-68,14,83,-1,-82,-1
65473,6570,3651,-172,-82,-64,-76,25,-75,13,82,-1
65454,-63,6590,3579,-176,-82,-62,-1,-56,25,-123,14
65360,-82,-62,6610,3653,-176,-82,-1,-62,-1,-36,25
3525,-174,-82,-64,6630,3427,81,-1,-83,-1,-64,-1
6640,3741,-175,-83,-64,6650,64,14,83,-1,-83,-1
65471,6660,3566,-174,-83,-65,14,26,106,14,87,-1
65453,-68,6680,3683,-173,-83,-63,-1,34,26,-23,13
65360,-83,-61,6700,3781,180,-83,-1,-57,-1,54,26
3535,-179,-82,-59,6720,3648,77,-1,-83,-1,-60,-1
6730,3652,-179,-83,-59,6740,-12,13,-77,0,-83,-1
65479,6750,3756,-180,-83,-58,104,26,-105,13,-78,0
65453,-56,6770,3748,177,-83,-55,-1,124,26,-6,13
176,-83,-54,6790,3678,176,-83,-1,-54,-1,-112,26
3727,176,-83,-54,6810,3750,-80,0,-83,-1,-55,-1
6820,3595,178,-83,-56,6830,47,14,-80,0,-83,-1
65482,6840,3716,175,-83,-53,-62,26,-107,13,-82,0
65453,-53,6860,3625,172,-83,-51,-1,-42,26,-79,13
172,-83,-51,6880,3716,169,-83,-1,-49,-1,-22,26
3695,171,-83,-51,6900,3647,-85,0,-83,-1,-51,-1
6910,3582,171,-83,-50,6920,-81,14,-85,0,-83,-1
65487,6930,3534,170,-83,-48,28,27,52,14,-85,0
65453,-50,6950,3730,169,-83,-47,-1,48,27,9,14
172,-83,-50,6970,3673,170,-83,-1,-49,-1,68,27
3689,170,-83,-49,6990,3756,-87,0,-83,-1,-48,-1
7000,3662,169,-83,-47,7010,115,14,-85,0,-83,-1
65487,7020,3446,169,-83,-48,118,27,-119,14,-85,0
65453,-50,7040,3584,171,-82,-50,-1,-118,27,-88,14
172,-82,-51,7060,3564,172,-82,-1,-51,-1,-98,27
3754,171,-83,-50,7080,3624,-83,0,-82,-1,-52,-1
7090,3643,174,-83,-52,7100,-86,13,-79,0,-83,-1
65481,7110,3765,179,-82,-56,-48,27,42,14,76,-1
65454,-58,7130,3760,-178,-82,-59,-1,-28,27,35,14
65357,-82,-58,7150,3601,-179,-82,-1,-57,-1,-8,27
3538,-180,-82,-56,7170,3600,77,-1,-82,-1,-56,-1
7180,3689,-180,-81,-56,7190,-39,13,76,-1,-81,-1
65480,7200,3760,180,-81,-55,42,28,15,14,76,-1
65454,-55,7220,3689,-178,-82,-57,-1,62,28,107,14
65357,-82,-56,7240,3632,-179,-82,-1,-57,-1,82,28
3580,-179,-82,-56,7260,3595,78,-1,-82,-1,-57,-1
7270,3719,-177,-83,-58,7280,-12,13,78,-1,-83,-1
65478,7290,3641,-176,-83,-60,-124,28,-12,13,81,-1
65453,-61,7310,3689,-174,-83,-62,-1,-104,28,26,14
65363,-84,-62,7330,3589,-173,-85,-1,-63,-1,-84,28
3535,-171,-84,-64,7350,3660,84,-1,-84,-1,-63,-1
7360,3688,-171,-84,-64,7370,-44,13,85,-1,-84,-1
65472,7380,3519,-170,-83,-65,-34,28,0,14,87,-1
65452,-65,7400,3482,-170,-83,-65,-1,-14,28,36,14
65368,-83,-66,7420,3729,-169,-83,-1,-65,-1,6,29
3737,-166,-83,-68,7440,3718,90,-1,-83,-1,-68,-1
7450,3701,-167,-83,-67,7460,-118,14,91,-1,-83,-1
65467,7470,3589,-166,-82,-68,56,29,19,14,91,-1
65454,-68,7490,3642,-165,-82,-68,-1,76,29,84,14
65371,-81,-68,7510,3543,-165,-81,-1,-68,-1,96,29
3676,-165,-81,-67,7530,3686,88,-1,-81,-1,-65,-1
7540,3656,-171,-81,-61,7550,91,14,84,-1,-81,-1
65475,7560,3726,-174,-81,-59,-110,29,-99,14,81,-1
65455,-59,7580,3626,-177,-81,-58,-1,-90,29,49,14
65357,-81,-57,7600,3573,-179,-81,-1,-56,-1,-70,29
3475,-179,-81,-57,7620,3652,77,-1,-81,-1,-57,-1
7630,3645,-179,-82,-57,7640,48,14,78,-1,-82,-1
65478,7650,3657,-177,-82,-58,-20,29,116,14,80,-1
65454,-60,7670,3728,-174,-82,-61,-1,0,30,102,14
65357,-82,-57,7690,3684,177,-82,-1,-53,-1,20,30
3703,175,-82,-52,7710,3642,-80,0,-82,-1,-53,-1
7720,3654,177,-82,-53,7730,-43,13,-79,0,-82,-1
65483,7740,3675,176,-82,-52,70,30,-22,13,-82,0
65454,-51,7760,3621,172,-82,-48,-1,90,30,57,14
173,-82,-49,7780,3658,174,-82,-1,-50,-1,110,30
3643,172,-82,-49,7800,3544,-84,0,-82,-1,-49,-1
7810,3645,172,-82,-49,7820,41,14,-83,0,-82,-1
65487,7830,3522,172,-82,-48,-96,30,115,14,-86,0
65454,-47,7850,3665,170,-82,-46,-1,-76,30,11,14
168,-82,-45,7870,3655,168,-82,-1,-45,-1,-56,30
3603,166,-82,-44,7890,3639,-89,0,-82,-1,-44,-1
7900,3663,168,-82,-44,7910,-107,14,-90,0,-82,-1
65493,7920,3628,167,-82,-44,-6,30,-46,13,-91,0
65454,-42,7940,3561,166,-82,-42,-1,14,31,93,14
164,-82,-41,7960,3622,164,-82,-1,-41,-1,34,31
3627,166,-82,-43,7980,3588,-91,0,-82,-1,-41,-1
7990,3611,166,-83,-42,8000,41,14,-92,0,-82,-1
65495,8010,3686,165,-82,-41,84,31,-108,14,-91,0
65454,-42,8030,3521,163,-83,-40,-1,104,31,37,14
166,-83,-42,8050,3615,165,-82,-1,-42,-1,124,31
3668,166,-83,-43,8070,3586,-92,0,-83,-1,-41,-1
8080,3491,163,-83,-40,8090,-121,14,-90,0,-83,-1
65493,8100,3690,167,-83,-44,-82,31,-117,14,-87,0
65453,-45,8120,3565,171,-83,-47,-1,-62,31,4,14
171,-83,-46,8140,3555,173,-83,-1,-48,-1,-42,31
3668,172,-84,-47,8160,3707,-83,0,-83,-1,-47,-1
8170,3680,173,-83,-47,8180,-91,13,-83,0,-83,-1
65488,8190,3526,173,-83,-48,8,32,4,14,-84,0
65452,-47,8210,3622,173,-84,-47,-1,28,32,-67,13
173,-84,-47,8230,3550,175,-84,-1,-49,-1,48,32
3647,175,-84,-49,8250,3720,-81,0,-84,-1,-49,-1
8260,3568,177,-84,-52,8270,19,14,-79,0,-85,-1
65484,8280,3659,179,-85,-54,98,32,81,14,-77,0
65451,-55,8300,3696,-178,-86,-57,-1,118,32,32,14
65361,-86,-60,8320,3595,-175,-86,-1,-60,-1,-118,32
3682,-171,-86,-63,8340,3658,85,-1,-86,-1,-62,-1
8350,3729,-170,-86,-63,8360,61,14,86,-1,-86,-1
65472,8370,3640,-170,-86,-63,-68,32,71,14,88,-1
65451,-66,8390,3623,-168,-85,-66,-1,-48,32,114,14
65368,-85,-65,8410,3713,-168,-85,-1,-65,-1,-28,32
3628,-168,-85,-65,8430,3631,90,-1,-84,-1,-66,-1
8440,3629,-167,-85,-65,8450,60,14,90,-1,-84,-1
65470,8460,3624,-167,-84,-65,22,33,54,14,88,-1
65453,-64,8480,3646,-167,-83,-65,-1,42,33,126,14
65369,-83,-65,8500,3654,-167,-83,-1,-65,-1,62,33
3696,-167,-83,-64,8520,3609,87,-1,-83,-1,-62,-1
8530,3643,-172,-82,-59,8540,-37,13,80,-1,-82,-1
65481,8550,3713,-177,-83,-55,112,33,61,14,78,-1
65453,-54,8570,3645,-178,-83,-54,-1,-124,33,22,14
65357,-83,-54,8590,3705,178,-83,-1,-52,-1,-104,33
3624,178,-82,-52,8610,3607,-79,0,-83,-1,-52,-1
8620,3658,178,-83,-53,8630,93,14,-77,0,-83,-1
65482,8640,3626,177,-83,-52,-54,33,76,14,-78,0
65453,-53,8660,3656,180,-83,-54,-1,-34,33,65,14
65357,-84,-55,8680,3657,177,-83,-1,-51,-1,-14,33
3707,173,-83,-48,8700,3691,-85,0,-83,-1,-47,-1
8710,3671,171,-83,-47,8720,-10,13,-84,0,-83,-1
65488,8730,3738,172,-84,-47,36,34,81,14,-84,0
65453,-47,8750,3548,170,-83,-45,-1,56,34,-46,13
169,-83,-45,8770,3685,170,-83,-1,-45,-1,76,34
3561,169,-84,-45,8790,3697,-88,0,-83,-1,-44,-1
8800,3620,166,-84,-42,8810,38,14,-90,0,-84,-1
65494,8820,3593,166,-84,-42,126,34,26,14,-92,0
65452,-40,8840,3616,163,-84,-39,-1,-110,34,-2,13
161,-84,-38,8860,3698,161,-83,-1,-37,-1,-90,34
3564,160,-83,-37,8880,3637,-97,0,-83,-1,-36,-1
8890,3615,162,-83,-38,8900,40,14,-96,0,-84,-1
65500,8910,3593,162,-83,-38,-40,34,122,14,-96,0
65453,-36,8930,3678,160,-83,-36,-1,-20,34,8,14
162,-83,-38,8950,3497,159,-83,-1,-35,-1,0,35
3630,161,-83,-36,8970,3605,-97,0,-83,-1,-34,-1
8980,3691,160,-83,-36,8990,6,14,-95,0,-83,-1
65499,9000,3651,159,-83,-35,50,35,16,14,-95,0
65453,-36,9020,3579,158,-83,-34,-1,70,35,93,14
160,-83,-36,9040,3569,162,-83,-1,-37,-1,90,35
3596,162,-83,-38,9060,3550,-91,0,-83,-1,-41,-1
9070,3605,163,-83,-39,9080,71,14,-91,0,-83,-1
65495,9090,3690,168,-83,-44,-116,35,27,14,-87,0
65452,-44,9110,3613,172,-83,-47,-1,-96,35,83,14
174,-83,-48,9130,3649,175,-84,-1,-49,-1,-76,35
3584,177,-84,-50,9150,3528,-79,0,-84,-1,-49,-1
9160,3638,178,-84,-51,9170,104,14,-78,0,-84,-1
65485,9180,3685,178,-83,-51,-26,35,3,14,-77,0
65453,-51,9200,3665,179,-84,-51,-1,-6,35,90,14
65357,-84,-54,9220,3695,-179,-84,-1,-53,-1,14,36
3749,-177,-84,-55,9240,3666,79,-1,-84,-1,-56,-1
9250,3655,-175,-85,-57,9260,63,14,83,-1,-84,-1
65477,9270,3672,-172,-85,-61,64,36,68,14,85,-1
65451,-63,9290,3692,-170,-85,-64,-1,84,36,57,14
65369,-86,-67,9310,3632,-164,-85,-1,-70,-1,104,36
3635,-161,-86,-73,9330,3659,99,-1,-86,-1,-77,-1
9340,3535,-155,-87,-79,9350,-8,13,104,-1,-87,-1
65454,9360,3519,-151,-86,-82,-102,36,40,14,103,-1
65450,-80,9380,3656,-153,-86,-80,-1,-82,36,10,14
65382,-86,-80,9400,3540,-154,-85,-1,-80,-1,-62,36
3511,-152,-85,-81,9420,3590,107,-1,-86,-1,-84,-1
9430,3643,-149,-85,-84,9440,-12,13,109,-1,-85,-1
65450,9450,3564,-148,-85,-85,-12,36,2,14,108,-1
65451,-84,9470,3635,-148,-85,-84,-1,8,37,63,14
65388,-84,-83,9490,3692,-150,-84,-1,-82,-1,28,37
3614,-151,-84,-81,9510,3623,104,-1,-83,-1,-80,-1
9520,3556,-153,-84,-79,9530,58,14,100,-1,-83,-1
65461,9540,3645,-161,-83,-71,78,37,12,14,91,-1
65453,-67,9560,3552,-167,-83,-65,-1,98,37,60,14
65367,-83,-64,9580,3567,-172,-82,-1,-62,-1,118,37
3568,-175,-82,-59,9600,3540,79,-1,-82,-1,-57,-1
9610,3603,-178,-82,-56,9620,40,14,77,-1,-82,-1
65480,9630,3590,-177,-82,-57,-88,37,69,14,79,-1
65454,-57,9650,3563,-177,-82,-57,-1,-68,37,-63,13
65360,-83,-58,9670,3582,-178,-83,-1,-57,-1,-48,37
3611,180,-83,-55,9690,3628,79,-1,-83,-1,-57,-1
9700,3617,-178,-83,-55,9710,60,14,-77,0,-83,-1
65483,9720,3692,176,-82,-51,2,38,127,14,-80,0
65454,-51,9740,3623,177,-82,-53,-1,22,38,32,14
178,-82,-53,9760,3616,176,-82,-1,-51,-1,42,38
3715,175,-82,-50,9780,3670,-82,0,-82,-1,-49,-1
9790,3599,174,-82,-49,9800,104,14,-82,0,-82,-1
65487,9810,3649,172,-82,-47,92,38,-13,13,-85,0
65454,-46,9830,3686,170,-82,-45,-1,112,38,94,14
168,-82,-43,9850,3653,168,-82,-1,-43,-1,-124,38
3672,168,-82,-43,9870,3542,-89,0,-82,-1,-43,-1
9880,3605,166,-82,-42,9890,12,14,-89,0,-81,-1
65493,9900,3605,167,-82,-44,-74,38,-4,13,-87,0
65454,-44,9920,3607,169,-82,-45,-1,-54,38,70,14
168,-82,-44,9940,3585,168,-82,-1,-43,-1,-34,38
3593,167,-82,-43,9960,3655,-91,0,-81,-1,-41,-1
9970,3562,165,-82,-41,9980,53,14,-90,0,-82,-1
65495,9990,3678,165,-82,-41,16,39,-4,13,-90,0
65454,-42,10010,3559,168,-81,-43,-1,36,39,28,14
167,-82,-42,10030,3636,167,-82,-1,-42,-1,56,39
3635,167,-82,-43,10050,3580,-88,0,-82,-1,-44,-1
10060,3644,167,-82,-43,10070,-73,13,-90,0,-82,-1
65494,10080,3569,164,-82,-40,106,39,48,13,-90,0
65454,-42,10100,3619,167,-82,-42,-1,126,39,52,14
168,-82,-43,10120,3596,168,-81,-1,-43,-1,-110,39
3466,169,-82,-44,10140,3614,-85,0,-82,-1,-45,-1
10150,3456,171,-82,-45,10160,-56,13,-84,0,-82,-1
65491,10170,3639,172,-82,-45,-60,39,-7,13,-85,0
65453,-44,10190,3509,170,-84,-44,-1,-40,39,60,14
169,-84,-43,10210,3470,168,-85,-1,-42,-1,-20,39
3459,169,-85,-44,10230,3503,-85,0,-85,-1,-47,-1
10240,3609,171,-85,-47,10250,-111,13,-84,0,-85,-1
65488,10260,3494,172,-85,-49,30,40,0,14,-83,0
65450,-50,10280,3410,175,-85,-51,-1,50,40,-73,13
174,-86,-49,10300,3540,174,-85,-1,-49,-1,70,40
3431,174,-85,-48,10320,3538,-83,0,-85,-1,-47,-1
10330,3451,172,-85,-46,10340,-39,13,-83,0,-85,-1
65489,10350,3469,173,-85,-47,120,40,-44,13,-83,0
65451,-48,10370,3469,174,-85,-48,-1,-116,40,-93,13
173,-85,-48,10390,3387,174,-85,-1,-49,-1,-96,40
3452,176,-85,-50,10410,3534,-80,0,-85,-1,-51,-1
10420,3310,176,-85,-51,10430,63,13,-79,0,-85,-1
65484,10440,3617,176,-85,-51,-46,40,75,13,-80,0
65450,-51,10460,3312,177,-85,-51,-1,-26,40,5,13
176,-86,-50,10480,3431,177,-86,-1,-51,-1,-6,40
3500,177,-86,-52,10500,3324,-79,0,-86,-1,-52,-1
10510,3267,177,-86,-51,10520,-26,13,-79,0,-85,-1
65485,10530,3335,178,-85,-52,44,41,-114,12,-79,0
65450,-52,10550,3496,179,-86,-53,-1,64,41,-125,13
180,-85,-54,10570,3390,-180,-86,-1,-55,-1,84,41
3322,-179,-86,-55,10590,3363,78,-1,-85,-1,-56,-1
10600,3268,-177,-86,-57,10610,2,13,79,-1,-86,-1
65479,10620,3407,-176,-86,-59,-122,41,37,13,80,-1
65450,-58,10640,3301,-176,-87,-58,-1,-102,41,43,13
65360,-87,-58,10660,3370,-175,-87,-1,-59,-1,-82,41
3404,-175,-87,-59,10680,3182,81,-1,-88,-1,-59,-1
10690,3298,-172,-88,-62,10700,10,13,84,-1,-88,-1
65474,10710,3234,-169,-88,-66,-32,41,-91,12,86,-1
65448,-65,10730,3418,-166,-89,-69,-1,-12,41,71,13
65369,-88,-68,10750,3249,-164,-89,-1,-71,-1,8,42
3165,-166,-88,-69,10770,3313,93,-1,-89,-1,-71,-1
10780,3319,-169,-88,-65,10790,36,13,88,-1,-89,-1
65469,10800,3303,-169,-88,-65,58,42,-31,12,88,-1
65448,-66,10820,3269,-170,-88,-65,-1,78,42,61,12
65366,-87,-64,10840,3218,-170,-87,-1,-65,-1,98,42
3276,-169,-87,-65,10860,3113,86,-1,-87,-1,-64,-1
10870,3238,-171,-87,-63,10880,73,13,87,-1,-87,-1
65471,10890,3209,-168,-87,-66,-108,42,54,13,85,-1
65449,-64,10910,3326,-171,-87,-64,-1,-88,42,15,13
65367,-87,-65,10930,3333,-169,-87,-1,-66,-1,-68,42
3234,-168,-87,-67,10950,3117,87,-1,-87,-1,-66,-1
10960,3274,-168,-87,-67,10970,12,13,89,-1,-87,-1
65469,10980,3411,-167,-87,-68,-18,42,94,12,88,-1
65449,-67,11000,3289,-165,-87,-70,-1,2,43,15,13
65374,-87,-73,11020,3232,-163,-87,-1,-71,-1,22,43
3109,-163,-87,-72,11040,3355,96,-1,-87,-1,-74,-1
11050,3253,-154,-87,-81,11060,-80,12,103,-1,-87,-1
65455,11070,3127,-156,-87,-78,72,43,53,13,100,-1
65449,-79,11090,3099,-149,-87,-86,-1,92,43,87,12
65391,-88,-90,11110,2954,-146,-87,-1,-88,-1,112,43
3423,-149,-87,-85,11130,3114,106,-1,-87,-1,-85,-1
11140,2990,-143,-88,-92,11150,-78,11,117,-1,-88,-1
65440,11160,2914,-143,-87,-91,-94,43,-89,11,111,-1
65449,-89,11180,2923,-144,-87,-90,-1,-74,43,64,11
65399,-88,-98,11200,3184,-134,-88,-1,-100,-1,-54,43
3240,-138,-87,-96,11220,2974,115,-1,-87,-1,-94,-1
11230,3235,-140,-87,-94,11240,-119,11,117,-1,-87,-1
65441,11250,3200,-137,-88,-97,-4,43,-68,11,120,-1
65449,-99,11270,2973,-143,-87,-92,-1,16,44,-59,11
65389,-87,-88,11290,3246,-147,-87,-1,-88,-1,36,44
3215,-141,-87,-94,11310,3035,120,-1,-87,-1,-98,-1
11320,3286,-142,-87,-93,11330,-62,12,108,-1,-87,-1
65449,11340,3153,-149,-87,-85,86,44,-84,11,107,-1
65449,-85,11360,2880,-145,-87,-90,-1,106,44,44,12
65397,-87,-96,11380,3000,-143,-87,-1,-92,-1,126,44
2948,-148,-87,-86,11400,3215,105,-1,-87,-1,-84,-1
11410,3022,-150,-87,-85,11420,-108,11,113,-1,-87,-1
65444,11430,3006,-140,-88,-95,-80,44,98,11,113,-1
65449,-92,11450,3024,-146,-87,-88,-1,-60,44,-121,12
65385,-87,-84,11470,3189,-151,-87,-1,-84,-1,-40,44
3077,-147,-87,-88,11490,3169,113,-1,-88,-1,-92,-1
11500,3094,-139,-88,-96,11510,-108,11,113,-1,-87,-1
65444,11520,2953,-149,-87,-86,10,45,-29,11,104,-1
65449,-83,11540,3103,-152,-87,-83,-1,30,45,67,11
65386,-87,-85,11560,2993,-143,-88,-1,-92,-1,50,45
3034,-135,-88,-100,11580,3011,121,-1,-88,-1,-100,-1
11590,3142,-140,-87,-95,11600,-110,11,110,-1,-87,-1
65447,11610,3026,-148,-87,-87,100,45,-11,11,109,-1
65449,-88,11630,2848,-143,-88,-92,-1,120,45,29,11
65399,-88,-98,11650,3076,-128,-88,-1,-107,-1,-116,45
2902,-127,-88,-108,11670,2987,126,-1,-88,-1,-105,-1
11680,3029,-139,-88,-96,11690,-32,11,108,-1,-87,-1
65448,11700,2901,-152,-87,-83,-66,45,-121,11,102,-1
65449,-81,11720,2892,-150,-88,-85,-1,-46,45,-47,11
65392,-88,-91,11740,2975,-150,-88,-1,-85,-1,-26,45
2870,-141,-88,-94,11760,3052,116,-1,-88,-1,-95,-1
11770,2941,-142,-88,-93,11780,-18,10,118,-1,-88,-1
65439,11790,3113,-145,-88,-90,24,46,-116,11,103,-1
65449,-82,11810,2808,-156,-87,-79,-1,44,46,103,11
65381,-87,-80,11830,2902,-154,-87,-1,-81,-1,64,46
3004,-150,-88,-85,11850,2829,115,-1,-88,-1,-94,-1
11860,2855,-146,-88,-89,11870,107,11,106,-1,-88,-1
65451,11880,2876,-147,-88,-89,114,46,-35,10,112,-1
65448,-91,11900,2849,-145,-88,-91,-1,-122,46,-57,11
65393,-88,-92,11920,2791,-151,-88,-1,-84,-1,-102,46
2927,-153,-87,-83,11940,2978,106,-1,-88,-1,-85,-1
11950,2760,-142,-88,-93,11960,121,11,105,-1,-88,-1
65452,11970,2888,-145,-88,-90,-52,46,106,11,115,-1
65448,-94,11990,2841,-143,-88,-92,-1,-32,46,-28,10
65396,-88,-95,12010,2851,-146,-88,-1,-89,-1,-12,46
2973,-151,-88,-84,12030,2824,102,-1,-88,-1,-81,-1
12040,2810,-146,-88,-89,12050,3,11,103,-1,-88,-1
65454,12060,2929,-157,-87,-78,38,47,-32,11,97,-1
65449,-76,12080,2852,-155,-87,-81,-1,58,47,-6,11
65379,-87,-79,12100,2794,-159,-87,-1,-77,-1,78,47
2758,-161,-86,-75,12120,3007,94,-1,-86,-1,-73,-1
12130,2764,-164,-86,-72,12140,80,10,92,-1,-86,-1
65465,12150,2886,-165,-86,-71,-128,47,-58,10,90,-1
65451,-70,12170,2738,-166,-85,-70,-1,-108,47,99,11
65370,-85,-70,12190,2700,-166,-85,-1,-70,-1,-88,47
2775,-167,-85,-70,12210,2799,90,-1,-85,-1,-70,-1
12220,2654,-167,-85,-69,12230,-79,10,89,-1,-85,-1
65467,12240,2833,-167,-85,-69,-38,47,72,11,89,-1
65451,-69,12260,2854,-167,-85,-69,-1,-18,47,96,10
65368,-85,-69,12280,2737,-168,-85,-1,-68,-1,2,48
2866,-169,-85,-68,12300,2652,87,-1,-84,-1,-67,-1
12310,2838,-170,-84,-67,12320,-36,10,86,-1,-84,-1
65469,12330,2480,-171,-83,-66,52,48,62,10,85,-1
65453,-66,12350,2865,-172,-83,-65,-1,72,48,98,10
65363,-82,-65,12370,2785,-173,-82,-1,-64,-1,92,48
2871,-174,-81,-64,12390,2762,82,-1,-81,-1,-63,-1
12400,2761,-175,-80,-63,12410,94,10,81,-1,-80,-1
65473,12420,2651,-175,-80,-63,-114,48,-82,10,81,-1
65456,-63,12440,2648,-175,-80,-63,-1,-94,48,88,10
65362,-81,-63,12460,2719,-174,-81,-1,-64,-1,-74,48
2491,-174,-82,-64,12480,2710,82,-1,-82,-1,-64,-1
12490,2785,-173,-83,-64,12500,-114,10,84,-1,-83,-1
65471,12510,2739,-172,-83,-65,-24,48,124,10,84,-1
65453,-65,12530,2645,-172,-83,-65,-1,-4,48,-52,10
65364,-83,-65,12550,2632,-173,-82,-1,-65,-1,16,49
2764,-173,-82,-65,12570,2772,83,-1,-82,-1,-65,-1
12580,2703,-174,-82,-64,12590,37,11,83,-1,-82,-1
65471,12600,2715,-173,-83,-65,66,49,63,10,84,-1
65453,-65,12620,2766,-172,-84,-65,-1,86,49,26,10
65365,-84,-66,12640,2686,-171,-84,-1,-66,-1,106,49
2743,-171,-84,-66,12660,2625,85,-1,-83,-1,-66,-1
12670,2674,-171,-83,-67,12680,122,10,84,-1,-82,-1
65471,12690,2607,-173,-82,-65,-100,49,46,10,84,-1
65454,-66,12710,2673,-172,-83,-66,-1,-80,49,68,10
65365,-83,-67,12730,2728,-171,-84,-1,-67,-1,-60,49
2549,-171,-84,-67,12750,2632,85,-1,-83,-1,-67,-1
12760,2663,-171,-83,-67,12770,39,10,85,-1,-83,-1
65470,12780,2576,-172,-83,-66,-10,49,93,10,84,-1
65453,-65,12800,2577,-172,-83,-66,-1,10,50,88,10
65365,-84,-67,12820,2594,-171,-84,-1,-67,-1,30,50
2638,-171,-83,-67,12840,2594,85,-1,-83,-1,-67,-1
12850,2554,-172,-83,-65,12860,-91,10,83,-1,-83,-1
65471,12870,2593,-173,-82,-65,80,50,66,10,83,-1
65453,-65,12890,2628,-173,-83,-65,-1,100,50,-18,9
65364,-83,-66,12910,2541,-171,-83,-1,-67,-1,120,50
2456,-171,-83,-66,12930,2519,84,-1,-83,-1,-66,-1
12940,2641,-171,-83,-67,12950,46,10,85,-1,-83,-1
65469,12960,2467,-171,-83,-67,-86,50,17,10,85,-1
65453,-67,12980,2502,-172,-83,-66,-1,-66,50,-80,9
65364,-82,-66,13000,2589,-172,-83,-1,-66,-1,-46,50
2405,-172,-83,-66,13020,2629,84,-1,-83,-1,-66,-1
13030,2445,-171,-84,-67,13040,-75,9,85,-1,-83,-1
65470,13050,2573,-171,-84,-67,4,51,-52,9,85,-1
65453,-67,13070,2732,-171,-83,-67,-1,24,51,-76,9
65365,-83,-67,13090,2580,-171,-83,-1,-67,-1,44,51
2676,-172,-83,-66,13110,2504,83,-1,-82,-1,-65,-1
13120,2583,-173,-82,-65,13130,-16,9,83,-1,-82,-1
65471,13140,2560,-172,-82,-66,94,51,-102,10,83,-1
65454,-65,13160,2500,-173,-81,-65,-1,114,51,-65,9
65363,-81,-65,13180,2452,-172,-81,-1,-66,-1,-122,51
2448,-173,-81,-65,13200,2518,83,-1,-81,-1,-65,-1
13210,2409,-174,-81,-65,13220,23,10,83,-1,-82,-1
65471,13230,2518,-173,-82,-65,-72,51,-114,9,83,-1
65454,-65,13250,2626,-174,-81,-65,-1,-52,51,-71,9
65363,-81,-65,13270,2556,-173,-82,-1,-65,-1,-32,51
2546,-173,-82,-65,13290,2460,82,-1,-81,-1,-65,-1
13300,2508,-173,-81,-65,13310,115,9,83,-1,-82,-1
65471,13320,2396,-173,-82,-65,18,52,81,9,82,-1
65455,-64,13340,2406,-174,-81,-64,-1,38,52,-106,9
65363,-82,-65,13360,2480,-174,-82,-1,-64,-1,58,52
2402,-174,-81,-64,13380,2394,82,-1,-81,-1,-65,-1
13390,2381,-173,-82,-65,13400,47,9,82,-1,-82,-1
65471,13410,2436,-174,-81,-65,108,52,-43,9,83,-1
65455,-66,13430,2511,-172,-82,-66,-1,-128,52,-118,9
65363,-81,-66,13450,2361,-173,-81,-1,-65,-1,-108,52
2429,-171,-81,-67,13470,2444,85,-1,-81,-1,-67,-1
13480,2573,-172,-81,-67,13490,-1,9,84,-1,-81,-1
65469,13500,2404,-172,-81,-67,-58,52,-71,9,84,-1
65455,-67,13520,2380,-172,-81,-66,-1,-38,52,10,9
65364,-81,-66,13540,2377,-172,-81,-1,-67,-1,-18,52
2333,-172,-81,-66,13560,2472,84,-1,-81,-1,-66,-1
13570,2398,-172,-81,-67,13580,26,9,84,-1,-81,-1
65469,13590,2315,-172,-81,-66,32,53,70,9,84,-1
65455,-67,13610,2369,-172,-81,-67,-1,52,53,-100,9
65365,-81,-67,13630,2391,-171,-81,-1,-68,-1,72,53
2367,-171,-81,-68,13650,2296,85,-1,-81,-1,-67,-1
13660,2380,-171,-81,-67,13670,107,9,85,-1,-81,-1
65469,13680,2286,-171,-81,-67,122,53,-106,9,85,-1
65455,-67,13700,2283,-171,-81,-67,-1,-114,53,115,9
65365,-80,-67,13720,2419,-171,-81,-1,-68,-1,-94,53
2293,-171,-81,-68,13740,2474,85,-1,-81,-1,-68,-1
13750,2355,-170,-81,-68,13760,99,9,85,-1,-80,-1
65468,13770,2360,-171,-81,-68,-44,53,-63,8,86,-1
65455,-68,13790,2469,-171,-80,-68,-1,-24,53,21,9
65365,-81,-68,13810,2315,-170,-81,-1,-68,-1,-4,53
2395,-171,-80,-68,13830,2281,85,-1,-81,-1,-68,-1
13840,2451,-170,-81,-69,13850,-11,8,85,-1,-81,-1
65468,13860,2311,-171,-81,-68,46,54,-97,9,85,-1
65456,-68,13880,2343,-171,-81,-67,-1,66,54,97,9
65365,-81,-68,13900,2241,-170,-80,-1,-68,-1,86,54
2236,-171,-81,-68,13920,2297,86,-1,-81,-1,-68,-1
13930,2164,-171,-81,-68,13940,51,9,86,-1,-81,-1
65468,13950,2326,-170,-81,-68,-120,54,40,9,86,-1
65455,-68,13970,2365,-170,-81,-69,-1,-100,54,-45,8
65366,-81,-68,13990,2297,-170,-81,-1,-69,-1,-80,54
2335,-169,-81,-69,14010,2250,86,-1,-81,-1,-69,-1
14020,2466,-169,-81,-70,14030,-31,8,86,-1,-81,-1
65467,14040,2255,-169,-81,-70,-30,54,29,9,86,-1
65455,-69,14060,2199,-169,-81,-69,-1,-10,54,16,9
65366,-81,-69,14080,2266,-170,-81,-1,-69,-1,10,55
2214,-169,-81,-69,14100,2304,86,-1,-81,-1,-68,-1
14110,2176,-170,-81,-69,14120,32,9,85,-1,-81,-1
65468,14130,2237,-170,-81,-68,60,55,-94,8,85,-1
65455,-67,14150,2319,-171,-81,-68,-1,80,55,-94,8
65365,-81,-67,14170,2213,-171,-81,-1,-68,-1,100,55
2268,-171,-81,-68,14190,2373,84,-1,-81,-1,-67,-1
14200,2275,-171,-81,-67,14210,-24,8,84,-1,-81,-1
65469,14220,2267,-171,-81,-67,-106,55,-53,8,84,-1
65455,-67,14240,2263,-172,-81,-67,-1,-86,55,7,9
65364,-81,-66,14260,2195,-172,-81,-1,-67,-1,-66,55
2232,-172,-81,-67,14280,2333,85,-1,-81,-1,-67,-1
14290,2181,-172,-81,-67,14300,-68,8,84,-1,-81,-1
65469,14310,2157,-172,-81,-67,-16,55,-15,8,85,-1
65455,-68,14330,2245,-172,-81,-67,-1,4,56,-117,8
65365,-81,-67,14350,2283,-172,-81,-1,-67,-1,24,56
2161,-171,-81,-68,14370,2322,85,-1,-81,-1,-68,-1
14380,2167,-171,-81,-68,14390,-53,8,85,-1,-81,-1
65468,14400,2281,-171,-81,-68,74,56,-103,8,85,-1
65455,-68,14420,2309,-171,-81,-68,-1,94,56,-105,8
65365,-81,-68,14440,2200,-170,-81,-1,-69,-1,114,56
2289,-170,-81,-69,14460,2212,85,-1,-81,-1,-68,-1
14470,2216,-171,-81,-68,14480,-101,8,85,-1,-81,-1
65468,14490,2112,-171,-81,-68,-92,56,-61,8,85,-1
65455,-68,14510,2217,-171,-81,-68,-1,-72,56,-92,8
65364,-81,-67,14530,2237,-171,-81,-1,-67,-1,-52,56
2184,-171,-81,-68,14550,2169,85,-1,-81,-1,-68,-1
14560,2119,-171,-81,-68,14570,-42,8,85,-1,-81,-1
65468,14580,2166,-171,-81,-68,-2,56,-63,8,85,-1
65455,-68,14600,2300,-171,-81,-68,-1,18,57,-90,8
65365,-81,-68,14620,2165,-171,-81,-1,-68,-1,38,57
2138,-171,-81,-68,14640,2271,84,-1,-81,-1,-67,-1
14650,2233,-171,-81,-68,14660,121,8,84,-1,-81,-1
65469,14670,2192,-172,-81,-67,88,57,84,8,85,-1
65455,-68,14690,2137,-172,-81,-67,-1,108,57,103,8
65365,-81,-68,14710,2146,-171,-81,-1,-68,-1,-128,57
2190,-171,-80,-68,14730,2179,85,-1,-81,-1,-68,-1
14740,2079,-171,-81,-68,14750,71,8,85,-1,-81,-1
65468,14760,2145,-171,-81,-68,-78,57,-111,8,85,-1
65455,-67,14780,2193,-172,-81,-67,-1,-58,57,45,8
65365,-81,-68,14800,2163,-172,-80,-1,-67,-1,-38,57
2078,-171,-81,-68,14820,2219,85,-1,-81,-1,-68,-1
14830,2130,-171,-80,-68,14840,78,8,86,-1,-81,-1
65467,14850,2157,-171,-80,-68,12,58,76,8,85,-1
65456,-68,14870,2137,-170,-81,-69,-1,32,58,63,8
65365,-80,-68,14890,2136,-171,-80,-1,-68,-1,52,58
2195,-171,-81,-68,14910,2111,85,-1,-80,-1,-68,-1
14920,2149,-171,-80,-68,14930,95,8,85,-1,-81,-1
65468,14940,2117,-172,-80,-67,102,58,48,8,84,-1
65456,-67,14960,2106,-172,-80,-67,-1,122,58,36,8
65364,-80,-67,14980,2127,-173,-80,-1,-67,-1,-114,58
2096,-172,-80,-67,15000,2147,84,-1,-80,-1,-67,-1
15010,2129,-172,-80,-67,15020,86,8,84,-1,-80,-1
65469,15030,2156,-171,-80,-68,-64,58,42,8,84,-1
65456,-67,15050,2127,-172,-80,-67,-1,-44,58,3,8
65365,-80,-68,15070,2102,-171,-80,-1,-68,-1,-24,58
2148,-171,-80,-68,15090,2196,85,-1,-80,-1,-67,-1
15100,2112,-171,-80,-68,15110,33,8,85,-1,-80,-1
65468,15120,2086,-172,-80,-67,26,59,24,8,84,-1
65456,-67,15140,2081,-171,-80,-68,-1,46,59,34,8
65365,-80,-68,15160,2088,-172,-80,-1,-67,-1,66,59
2084,-172,-80,-67,15180,2115,84,-1,-80,-1,-67,-1
15190,2007,-172,-80,-67,15200,9,8,83,-1,-80,-1
65470,15210,2091,-173,-80,-66,116,59,65,8,85,-1
65456,-67,15230,2101,-171,-80,-67,-1,-120,59,-26,7
65365,-80,-68,15250,2070,-171,-80,-1,-67,-1,-100,59
2037,-171,-80,-68,15270,2114,86,-1,-81,-1,-68,-1
15280,2101,-170,-81,-68,15290,31,8,85,-1,-81,-1
65468,15300,2128,-172,-81,-67,-50,59,13,8,85,-1
65455,-68,15320,2105,-170,-81,-68,-1,-30,59,40,8
65365,-81,-68,15340,2043,-172,-81,-1,-67,-1,-10,59
2058,-172,-81,-67,15360,2044,84,-1,-81,-1,-67,-1
15370,2033,-171,-81,-68,15380,47,8,85,-1,-81,-1
65469,15390,2035,-171,-81,-68,40,60,71,8,85,-1
65455,-67,15410,2092,-170,-81,-68,-1,60,60,-5,7
65366,-81,-69,15430,2057,-170,-81,-1,-69,-1,80,60
2014,-170,-81,-69,15450,2088,86,-1,-81,-1,-69,-1
15460,2049,-170,-81,-69,15470,87,8,87,-1,-81,-1
65466,15480,2051,-169,-81,-70,-126,60,16,8,88,-1
65455,-71,15500,2095,-168,-81,-71,-1,-106,60,21,8
65368,-81,-71,15520,2011,-168,-81,-1,-71,-1,-86,60
2109,-168,-82,-71,15540,2011,89,-1,-82,-1,-71,-1
15550,2042,-166,-82,-72,15560,-10,7,89,-1,-81,-1
65464,15570,2003,-167,-81,-71,-36,60,-21,7,89,-1
65454,-72,15590,2011,-167,-82,-72,-1,-16,60,10,8
65369,-82,-72,15610,2067,-166,-82,-1,-72,-1,4,61
1994,-166,-82,-72,15630,1991,91,-1,-82,-1,-73,-1
15640,2051,-166,-82,-73,15650,5,8,90,-1,-82,-1
65464,15660,2010,-167,-82,-71,54,61,-21,7,89,-1
65454,-71,15680,2023,-167,-82,-72,-1,74,61,-3,7
65369,-82,-72,15700,1982,-166,-82,-1,-72,-1,94,61
2074,-166,-82,-73,15720,2016,90,-1,-82,-1,-73,-1
15730,2045,-166,-82,-73,15740,-13,7,91,-1,-82,-1
65462,15750,2040,-164,-82,-75,-112,61,0,8,91,-1
65454,-74,15770,2020,-165,-82,-74,-1,-92,61,31,8
65371,-82,-74,15790,2018,-165,-82,-1,-74,-1,-72,61
2035,-166,-82,-73,15810,2008,90,-1,-82,-1,-72,-1
15820,2018,-166,-81,-72,15830,-45,7,90,-1,-81,-1
65463,15840,2013,-165,-81,-74,-22,61,-12,7,92,-1
65455,-74,15860,1994,-164,-81,-74,-1,-2,61,-61,7
65372,-82,-74,15880,1990,-164,-82,-1,-75,-1,18,62
1992,-163,-82,-75,15900,1987,93,-1,-82,-1,-75,-1
15910,2054,-163,-82,-76,15920,-53,7,94,-1,-82,-1
65460,15930,2057,-161,-82,-77,68,62,-77,7,94,-1
65454,-77,15950,2018,-161,-82,-78,-1,88,62,-30,7
65374,-82,-77,15970,1991,-161,-83,-1,-78,-1,108,62
2046,-162,-83,-77,15990,1963,95,-1,-83,-1,-78,-1
16000,2032,-162,-83,-77,16010,-66,7,95,-1,-83,-1
65458,16020,1976,-162,-83,-77,-98,62,-10,7,95,-1
65453,-78,16040,1973,-162,-82,-77,-1,-78,62,-51,7
65374,-82,-77,16060,1967,-163,-82,-1,-76,-1,-58,62
1955,-162,-82,-77,16080,2006,93,-1,-82,-1,-76,-1
16090,1949,-162,-82,-77,16100,-25,7,94,-1,-82,-1
65460,16110,1989,-162,-82,-77,-8,62,-63,7,95,-1
65454,-77,16130,1966,-161,-82,-77,-1,12,63,-52,7
65375,-82,-78,16150,1981,-162,-83,-1,-77,-1,32,63
1981,-162,-83,-77,16170,1952,94,-1,-82,-1,-77,-1
16180,2027,-162,-82,-77,16190,-87,7,95,-1,-82,-1
65458,16200,2001,-162,-82,-77,82,63,-39,7,94,-1
65454,-77,16220,1940,-161,-82,-77,-1,102,63,-70,7
65375,-82,-77,16240,1983,-161,-82,-1,-77,-1,122,63
2008,-160,-82,-78,16260,1958,95,-1,-82,-1,-78,-1
16270,2003,-161,-82,-78,16280,-87,7,94,-1,-82,-1
65460,16290,1967,-162,-82,-77,-84,63,-95,7,94,-1
65454,-77,16310,1960,-162,-82,-77,-1,-64,63,-84,7
65375,-82,-78,16330,2005,-160,-82,-1,-79,-1,-44,63
1951,-161,-82,-78,16350,1988,94,-1,-82,-1,-77,-1
16360,1978,-163,-82,-76,16370,-37,7,93,-1,-82,-1
65460,16380,1939,-162,-82,-77,6,64,-76,7,96,-1
65454,-78,16400,1938,-161,-82,-78,-1,26,64,-91,7
65374,-82,-77,16420,1954,-162,-82,-1,-76,-1,46,64
1956,-162,-82,-77,16440,1939,94,-1,-83,-1,-77,-1
16450,2002,-162,-82,-77,16460,-110,7,93,-1,-82,-1
65460,16470,1981,-163,-82,-75,96,64,-103,7,93,-1
65453,-76,16490,1964,-162,-83,-77,-1,116,64,-87,7
65374,-82,-77,16510,1956,-163,-82,-1,-76,-1,-120,64
1987,-163,-82,-75,16530,1961,93,-1,-83,-1,-76,-1
16540,1954,-162,-83,-77,16550,-92,7,94,-1,-83,-1
65459,16560,1943,-163,-82,-75,-70,64,-60,7,93,-1
65453,-76,16580,1948,-162,-83,-76,-1,-50,64,-84,7
65374,-83,-77,16600,1941,-163,-82,-1,-76,-1,-30,64
1951,-163,-83,-76,16620,1937,94,-1,-83,-1,-76,-1
16630,1940,-162,-83,-77,16640,-110,7,93,-1,-83,-1
65460,16650,1910,-163,-83,-76,20,65,-111,7,95,-1
65453,-77,16670,1948,-161,-83,-78,-1,40,65,-94,7
65375,-83,-78,16690,1966,-162,-83,-1,-77,-1,60,65
1939,-161,-82,-77,16710,1944,94,-1,-82,-1,-77,-1
16720,1935,-162,-83,-77,16730,-110,7,95,-1,-82,-1
65459,16740,1933,-161,-82,-77,110,65,-111,7,95,-1
65454,-78,16760,1924,-162,-82,-77,-1,-126,65,-103,7
65374,-82,-77,16780,1915,-162,-82,-1,-77,-1,-106,65
1937,-163,-82,-76,16800,1921,93,-1,-82,-1,-76,-1
16810,1941,-163,-82,-76,16820,-85,7,94,-1,-82,-1
65459,16830,1945,-162,-82,-77,-56,65,-116,7,94,-1
65454,-77,16850,1930,-162,-82,-77,-1,-36,65,-93,7
65373,-82,-76,16870,1919,-163,-82,-1,-76,-1,-16,65
1933,-163,-82,-75,16890,1913,93,-1,-82,-1,-76,-1
16900,1948,-163,-82,-76,16910,-126,7,93,-1,-82,-1
65460,16920,1926,-162,-82,-77,34,66,-115,7,94,-1
65454,-77,16940,1944,-163,-82,-76,-1,54,66,-128,7
65373,-82,-76,16960,1949,-162,-82,-1,-77,-1,74,66
1916,-163,-82,-76,16980,1946,94,-1,-82,-1,-76,-1
16990,1915,-162,-82,-77,17000,-119,7,94,-1,-82,-1
65459,17010,1924,-163,-82,-76,124,66,121,7,93,-1
65454,-76,17030,1943,-162,-82,-77,-1,-112,66,113,7
65374,-82,-77,17050,1912,-162,-82,-1,-77,-1,-92,66
1934,-162,-82,-77,17070,1922,94,-1,-82,-1,-77,-1
